[
  {"name": "北門天之鏡", "address": "100台北市中正區北平西路80號", "lat": 25.0481068, "lng": 121.5094291},
  {"name": "職人巷", "address": "103台北市大同區迪化街一段14巷", "lat": 25.054092, "lng": 121.5072284},
  {"name": "塔城公園", "address": "103台北市大同區塔城街11號", "lat": 25.0509358, "lng": 121.508125},
  {"name": "心中山線形公園", "address": "103台北市大同區雙連街77號", "lat": 25.0598358, "lng": 121.5194359},
  {"name": "美國街", "address": "108台北市萬華區昆明街96巷18號", "lat": 25.0448288, "lng": 121.5016663},
  {"name": "艋舺龍山寺", "address": "10853台北市萬華區廣州街211號", "lat": 25.0369892, "lng": 121.497327},
  {"name": "臺北植物園", "address": "100台北市中正區南海路53號", "lat": 25.0320712, "lng": 121.5060211},
  {"name": "大稻埕公園", "address": "103台北市大同區歸綏街243號", "lat": 25.0584807, "lng": 121.5079565},
  {"name": "延平河濱公園", "address": "103台北市大同區堤外道路", "lat": 25.054116, "lng": 121.5045007},
  {"name": "時間與空間的對話", "address": "100台北市中正區忠孝西路一段重慶南路一段", "lat": 25.0471727, "lng": 121.5107011}
]